{"type": "FeatureCollection", "features": [{"type": "Feature", "name": "Adamana", "city_code": "4001_adamana", "county_name": "Apache", "county_FIPS": "4001", "state_name": "Arizona", "state_abbr": "AZ", "state_FIPS": "4", "properties": {"missing": [], "unclaimed": [], "unidentified": [], "filtered": []}, "geometry": {"type": "Point", "coordinates": [-109.8223383, 34.9766921]}}, {"type": "Feature", "name": "Adobe", "city_code": "4013_adobe", "county_name": "Maricopa", "county_FIPS": "4013", "state_name": "Arizona", "state_abbr": "AZ", "state_FIPS": "4", "properties": {"missing": [], "unclaimed": [], "unidentified": [], "filtered": []}, "geometry": {"type": "Point", "coordinates": [-112.1226529, 33.6892053]}}, {"type": "Feature", "name": "Agua Fria", "city_code": "4013_aguafria", "county_name": "Maricopa", "county_FIPS": "4013", "state_name": "Arizona", "state_abbr": "AZ", "state_FIPS": "4", "properties": {"missing": [], "unclaimed": [], "unidentified": [], "filtered": []}, "geometry": {"type": "Point", "coordinates": [-112.31460359999998, 33.6055945]}}, {"type": "Feature", "name": "Aguila", "city_code": "4013_aguila", "county_name": "Maricopa", "county_FIPS": "4013", "state_name": "Arizona", "state_abbr": "AZ", "state_FIPS": "4", "properties": {"missing": [], "unclaimed": [], "unidentified": [{"Case Number": "UP2067", "DBF": "2/9/1994", "Age From": "35.0", "Age To": "40.0", "City": "Aguila", "County": "Maricopa", "State": "Arizona", "Sex": "Male", "Race / Ethnicity": "White / Caucasian", "Date Modified": "1/15/2020", "State_FIPS": "4", "State_County": "4_Maricopa", "County_FIPS": "4013", "City_string": "aguila", "County_city": "4013_aguila", "GNIS_city": "Aguila"}], "filtered": []}, "geometry": {"type": "Point", "coordinates": [-113.1740805, 33.942806899999994]}}, {"type": "Feature", "name": "Ajo", "city_code": "4019_ajo", "county_name": "Pima", "county_FIPS": "4019", "state_name": "Arizona", "state_abbr": "AZ", "state_FIPS": "4", "properties": {"missing": [{"Case Number": "MP40392", "DLC": "7/12/2011", "Last Name": "Casteneda", "First Name": "Francisco", "Missing Age": "32", "City": "Ajo", "County": "Pima", "State": "Arizona", "Sex": "Male", "Race / Ethnicity": "White / Caucasian, Hispanic / Latino", "Date Modified": "1/23/2020", "State_FIPS": "4", "State_County": "4_Pima", "County_FIPS": "4019", "City_string": "ajo", "County_city": "4019_ajo", "GNIS_city": "Ajo"}, {"Case Number": "MP16862", "DLC": "10/15/2011", "Last Name": "Antonio chavez", "First Name": "Abel", "Missing Age": "46", "City": "Ajo", "County": "Pima", "State": "Arizona", "Sex": "Male", "Race / Ethnicity": "Hispanic / Latino", "Date Modified": "4/5/2016", "State_FIPS": "4", "State_County": "4_Pima", "County_FIPS": "4019", "City_string": "ajo", "County_city": "4019_ajo", "GNIS_city": "Ajo"}, {"Case Number": "MP15860", "DLC": "9/22/2005", "Last Name": "Ramirez", "First Name": "Cutberto", "Missing Age": "36", "City": "Ajo", "County": "Pima", "State": "Arizona", "Sex": "Male", "Race / Ethnicity": "Hispanic / Latino", "Date Modified": "9/3/2019", "State_FIPS": "4", "State_County": "4_Pima", "County_FIPS": "4019", "City_string": "ajo", "County_city": "4019_ajo", "GNIS_city": "Ajo"}], "unclaimed": [], "unidentified": [{"Case Number": "UP59596", "DBF": "4/17/2019", "Age From": "25.0", "Age To": "40.0", "City": "Ajo", "County": "Pima", "State": "Arizona", "Sex": "Male", "Race / Ethnicity": "Hispanic / Latino", "Date Modified": "1/16/2020", "State_FIPS": "4", "State_County": "4_Pima", "County_FIPS": "4019", "City_string": "ajo", "County_city": "4019_ajo", "GNIS_city": "Ajo"}, {"Case Number": "UP57032", "DBF": "1/21/2019", "Age From": "25.0", "Age To": "40.0", "City": "Ajo", "County": "Pima", "State": "Arizona", "Sex": "Male", "Race / Ethnicity": "Hispanic / Latino, Other", "Date Modified": "1/16/2020", "State_FIPS": "4", "State_County": "4_Pima", "County_FIPS": "4019", "City_string": "ajo", "County_city": "4019_ajo", "GNIS_city": "Ajo"}, {"Case Number": "UP58304", "DBF": "1/21/2019", "Age From": "17.0", "Age To": "25.0", "City": "Ajo", "County": "Pima", "State": "Arizona", "Sex": "Male", "Race / Ethnicity": "Hispanic / Latino", "Date Modified": "1/15/2020", "State_FIPS": "4", "State_County": "4_Pima", "County_FIPS": "4019", "City_string": "ajo", "County_city": "4019_ajo", "GNIS_city": "Ajo"}, {"Case Number": "UP58314", "DBF": "1/21/2019", "Age From": "17.0", "Age To": "22.0", "City": "Ajo", "County": "Pima", "State": "Arizona", "Sex": "Male", "Race / Ethnicity": "Hispanic / Latino", "Date Modified": "1/15/2020", "State_FIPS": "4", "State_County": "4_Pima", "County_FIPS": "4019", "City_string": "ajo", "County_city": "4019_ajo", "GNIS_city": "Ajo"}, {"Case Number": "UP50422", "DBF": "2/26/2018", "Age From": "18.0", "Age To": "40.0", "City": "Ajo", "County": "Pima", "State": "Arizona", "Sex": "Male", "Race / Ethnicity": "Hispanic / Latino", "Date Modified": "11/1/2019", "State_FIPS": "4", "State_County": "4_Pima", "County_FIPS": "4019", "City_string": "ajo", "County_city": "4019_ajo", "GNIS_city": "Ajo"}, {"Case Number": "UP50404", "DBF": "2/26/2018", "Age From": "15.0", "Age To": "19.0", "City": "Ajo", "County": "Pima", "State": "Arizona", "Sex": "Male", "Race / Ethnicity": "White / Caucasian, Hispanic / Latino", "Date Modified": "11/1/2019", "State_FIPS": "4", "State_County": "4_Pima", "County_FIPS": "4019", "City_string": "ajo", "County_city": "4019_ajo", "GNIS_city": "Ajo"}, {"Case Number": "UP17596", "DBF": "11/3/2017", "Age From": "25.0", "Age To": "65.0", "City": "Ajo", "County": "Pima", "State": "Arizona", "Sex": "Male", "Race / Ethnicity": "Other", "Date Modified": "10/2/2019", "State_FIPS": "4", "State_County": "4_Pima", "County_FIPS": "4019", "City_string": "ajo", "County_city": "4019_ajo", "GNIS_city": "Ajo"}, {"Case Number": "UP17393", "DBF": "10/30/2017", "Age From": "20.0", "Age To": "50.0", "City": "Ajo", "County": "Pima", "State": "Arizona", "Sex": "Male", "Race / Ethnicity": "Other", "Date Modified": "10/2/2019", "State_FIPS": "4", "State_County": "4_Pima", "County_FIPS": "4019", "City_string": "ajo", "County_city": "4019_ajo", "GNIS_city": "Ajo"}, {"Case Number": "UP17305", "DBF": "10/20/2017", "Age From": "30.0", "Age To": "45.0", "City": "Ajo", "County": "Pima", "State": "Arizona", "Sex": "Male", "Race / Ethnicity": "Uncertain", "Date Modified": "1/16/2020", "State_FIPS": "4", "State_County": "4_Pima", "County_FIPS": "4019", "City_string": "ajo", "County_city": "4019_ajo", "GNIS_city": "Ajo"}, {"Case Number": "UP17239", "DBF": "9/12/2017", "Age From": "25.0", "Age To": "55.0", "City": "Ajo", "County": "Pima", "State": "Arizona", "Sex": "Male", "Race / Ethnicity": "Uncertain", "Date Modified": "10/2/2019", "State_FIPS": "4", "State_County": "4_Pima", "County_FIPS": "4019", "City_string": "ajo", "County_city": "4019_ajo", "GNIS_city": "Ajo"}, {"Case Number": "UP17066", "DBF": "6/17/2017", "Age From": "20.0", "Age To": "45.0", "City": "Ajo", "County": "Pima", "State": "Arizona", "Sex": "Male", "Race / Ethnicity": "Other", "Date Modified": "8/30/2019", "State_FIPS": "4", "State_County": "4_Pima", "County_FIPS": "4019", "City_string": "ajo", "County_city": "4019_ajo", "GNIS_city": "Ajo"}, {"Case Number": "UP17345", "DBF": "6/17/2017", "Age From": "18.0", "Age To": "60.0", "City": "Ajo", "County": "Pima", "State": "Arizona", "Sex": "Male", "Race / Ethnicity": "Uncertain", "Date Modified": "8/30/2019", "State_FIPS": "4", "State_County": "4_Pima", "County_FIPS": "4019", "City_string": "ajo", "County_city": "4019_ajo", "GNIS_city": "Ajo"}, {"Case Number": "UP16869", "DBF": "6/17/2017", "Age From": "20.0", "Age To": "50.0", "City": "Ajo", "County": "Pima", "State": "Arizona", "Sex": "Male", "Race / Ethnicity": "Other", "Date Modified": "8/2/2017", "State_FIPS": "4", "State_County": "4_Pima", "County_FIPS": "4019", "City_string": "ajo", "County_city": "4019_ajo", "GNIS_city": "Ajo"}, {"Case Number": "UP17070", "DBF": "6/17/2017", "Age From": "20.0", "Age To": "60.0", "City": "Ajo", "County": "Pima", "State": "Arizona", "Sex": "Male", "Race / Ethnicity": "Uncertain", "Date Modified": "8/30/2019", "State_FIPS": "4", "State_County": "4_Pima", "County_FIPS": "4019", "City_string": "ajo", "County_city": "4019_ajo", "GNIS_city": "Ajo"}, {"Case Number": "UP17071", "DBF": "6/17/2017", "Age From": "16.0", "Age To": "20.0", "City": "Ajo", "County": "Pima", "State": "Arizona", "Sex": "Male", "Race / Ethnicity": "Uncertain", "Date Modified": "4/2/2020", "State_FIPS": "4", "State_County": "4_Pima", "County_FIPS": "4019", "City_string": "ajo", "County_city": "4019_ajo", "GNIS_city": "Ajo"}, {"Case Number": "UP17056", "DBF": "6/17/2017", "Age From": "16.0", "Age To": "30.0", "City": "Ajo", "County": "Pima", "State": "Arizona", "Sex": "Male", "Race / Ethnicity": "Uncertain", "Date Modified": "1/23/2020", "State_FIPS": "4", "State_County": "4_Pima", "County_FIPS": "4019", "City_string": "ajo", "County_city": "4019_ajo", "GNIS_city": "Ajo"}, {"Case Number": "UP17064", "DBF": "5/27/2017", "Age From": "18.0", "Age To": "99.0", "City": "Ajo", "County": "Pima", "State": "Arizona", "Sex": "Male", "Race / Ethnicity": "Uncertain", "Date Modified": "10/2/2019", "State_FIPS": "4", "State_County": "4_Pima", "County_FIPS": "4019", "City_string": "ajo", "County_city": "4019_ajo", "GNIS_city": "Ajo"}, {"Case Number": "UP16831", "DBF": "2/28/2017", "Age From": "25.0", "Age To": "45.0", "City": "Ajo", "County": "Pima", "State": "Arizona", "Sex": "Male", "Race / Ethnicity": "Other", "Date Modified": "8/30/2019", "State_FIPS": "4", "State_County": "4_Pima", "County_FIPS": "4019", "City_string": "ajo", "County_city": "4019_ajo", "GNIS_city": "Ajo"}, {"Case Number": "UP16761", "DBF": "1/18/2017", "Age From": "40.0", "Age To": "60.0", "City": "Ajo", "County": "Pima", "State": "Arizona", "Sex": "Male", "Race / Ethnicity": "Uncertain", "Date Modified": "8/30/2019", "State_FIPS": "4", "State_County": "4_Pima", "County_FIPS": "4019", "City_string": "ajo", "County_city": "4019_ajo", "GNIS_city": "Ajo"}, {"Case Number": "UP16679", "DBF": "1/7/2017", "Age From": "18.0", "Age To": "40.0", "City": "Ajo", "County": "Pima", "State": "Arizona", "Sex": "Male", "Race / Ethnicity": "Other", "Date Modified": "1/23/2020", "State_FIPS": "4", "State_County": "4_Pima", "County_FIPS": "4019", "City_string": "ajo", "County_city": "4019_ajo", "GNIS_city": "Ajo"}, {"Case Number": "UP16677", "DBF": "1/7/2017", "Age From": "18.0", "Age To": "40.0", "City": "Ajo", "County": "Pima", "State": "Arizona", "Sex": "Male", "Race / Ethnicity": "Uncertain", "Date Modified": "4/16/2020", "State_FIPS": "4", "State_County": "4_Pima", "County_FIPS": "4019", "City_string": "ajo", "County_city": "4019_ajo", "GNIS_city": "Ajo"}, {"Case Number": "UP16740", "DBF": "12/20/2016", "Age From": "18.0", "Age To": "40.0", "City": "Ajo", "County": "Pima", "State": "Arizona", "Sex": "Male", "Race / Ethnicity": "Other", "Date Modified": "8/29/2019", "State_FIPS": "4", "State_County": "4_Pima", "County_FIPS": "4019", "City_string": "ajo", "County_city": "4019_ajo", "GNIS_city": "Ajo"}, {"Case Number": "UP16638", "DBF": "12/19/2016", "Age From": "18.0", "Age To": "40.0", "City": "Ajo", "County": "Pima", "State": "Arizona", "Sex": "Male", "Race / Ethnicity": "Other", "Date Modified": "8/30/2019", "State_FIPS": "4", "State_County": "4_Pima", "County_FIPS": "4019", "City_string": "ajo", "County_city": "4019_ajo", "GNIS_city": "Ajo"}, {"Case Number": "UP16468", "DBF": "10/25/2016", "Age From": "18.0", "Age To": "30.0", "City": "Ajo", "County": "Pima", "State": "Arizona", "Sex": "Male", "Race / Ethnicity": "Other", "Date Modified": "7/1/2019", "State_FIPS": "4", "State_County": "4_Pima", "County_FIPS": "4019", "City_string": "ajo", "County_city": "4019_ajo", "GNIS_city": "Ajo"}, {"Case Number": "UP16380", "DBF": "10/24/2016", "Age From": "18.0", "Age To": "60.0", "City": "Ajo", "County": "Pima", "State": "Arizona", "Sex": "Male", "Race / Ethnicity": "Other", "Date Modified": "7/1/2019", "State_FIPS": "4", "State_County": "4_Pima", "County_FIPS": "4019", "City_string": "ajo", "County_city": "4019_ajo", "GNIS_city": "Ajo"}, {"Case Number": "UP16261", "DBF": "10/16/2016", "Age From": "18.0", "Age To": "99.0", "City": "Ajo", "County": "Pima", "State": "Arizona", "Sex": "Male", "Race / Ethnicity": "Other", "Date Modified": "1/23/2020", "State_FIPS": "4", "State_County": "4_Pima", "County_FIPS": "4019", "City_string": "ajo", "County_city": "4019_ajo", "GNIS_city": "Ajo"}, {"Case Number": "UP16247", "DBF": "9/26/2016", "Age From": "17.0", "Age To": "26.0", "City": "Ajo", "County": "Pima", "State": "Arizona", "Sex": "Male", "Race / Ethnicity": "Other", "Date Modified": "8/30/2019", "State_FIPS": "4", "State_County": "4_Pima", "County_FIPS": "4019", "City_string": "ajo", "County_city": "4019_ajo", "GNIS_city": "Ajo"}, {"Case Number": "UP17408", "DBF": "7/31/2016", "Age From": "35.0", "Age To": "55.0", "City": "AJO", "County": "Pima", "State": "Arizona", "Sex": "Male", "Race / Ethnicity": "Uncertain", "Date Modified": "3/17/2020", "State_FIPS": "4", "State_County": "4_Pima", "County_FIPS": "4019", "City_string": "ajo", "County_city": "4019_ajo", "GNIS_city": "Ajo"}, {"Case Number": "UP16089", "DBF": "7/31/2016", "Age From": "16.0", "Age To": "45.0", "City": "Ajo", "County": "Pima", "State": "Arizona", "Sex": "Male", "Race / Ethnicity": "Uncertain", "Date Modified": "11/13/2019", "State_FIPS": "4", "State_County": "4_Pima", "County_FIPS": "4019", "City_string": "ajo", "County_city": "4019_ajo", "GNIS_city": "Ajo"}, {"Case Number": "UP17404", "DBF": "7/2/2016", "Age From": "25.0", "Age To": "40.0", "City": "Ajo", "County": "Pima", "State": "Arizona", "Sex": "Male", "Race / Ethnicity": "Other", "Date Modified": "3/17/2020", "State_FIPS": "4", "State_County": "4_Pima", "County_FIPS": "4019", "City_string": "ajo", "County_city": "4019_ajo", "GNIS_city": "Ajo"}, {"Case Number": "UP15857", "DBF": "4/1/2016", "Age From": "18.0", "Age To": "99.0", "City": "Ajo", "County": "Pima", "State": "Arizona", "Sex": "Male", "Race / Ethnicity": "Uncertain", "Date Modified": "1/23/2020", "State_FIPS": "4", "State_County": "4_Pima", "County_FIPS": "4019", "City_string": "ajo", "County_city": "4019_ajo", "GNIS_city": "Ajo"}, {"Case Number": "UP16316", "DBF": "1/28/2016", "Age From": "18.0", "Age To": "30.0", "City": "Ajo", "County": "Pima", "State": "Arizona", "Sex": "Male", "Race / Ethnicity": "Uncertain", "Date Modified": "8/30/2019", "State_FIPS": "4", "State_County": "4_Pima", "County_FIPS": "4019", "City_string": "ajo", "County_city": "4019_ajo", "GNIS_city": "Ajo"}, {"Case Number": "UP15696", "DBF": "11/8/2015", "Age From": "17.0", "Age To": "25.0", "City": "Ajo", "County": "Pima", "State": "Arizona", "Sex": "Male", "Race / Ethnicity": "Hispanic / Latino", "Date Modified": "7/1/2019", "State_FIPS": "4", "State_County": "4_Pima", "County_FIPS": "4019", "City_string": "ajo", "County_city": "4019_ajo", "GNIS_city": "Ajo"}, {"Case Number": "UP14491", "DBF": "8/19/2015", "Age From": "20.0", "Age To": "50.0", "City": "Ajo", "County": "Pima", "State": "Arizona", "Sex": "Male", "Race / Ethnicity": "Hispanic / Latino", "Date Modified": "12/6/2016", "State_FIPS": "4", "State_County": "4_Pima", "County_FIPS": "4019", "City_string": "ajo", "County_city": "4019_ajo", "GNIS_city": "Ajo"}, {"Case Number": "UP14177", "DBF": "2/18/2015", "Age From": "18.0", "Age To": "58.0", "City": "Ajo", "County": "Pima", "State": "Arizona", "Sex": "Male", "Race / Ethnicity": "Hispanic / Latino, Other", "Date Modified": "1/23/2020", "State_FIPS": "4", "State_County": "4_Pima", "County_FIPS": "4019", "City_string": "ajo", "County_city": "4019_ajo", "GNIS_city": "Ajo"}, {"Case Number": "UP13935", "DBF": "12/30/2014", "Age From": "18.0", "Age To": "50.0", "City": "AJO", "County": "Pima", "State": "Arizona", "Sex": "Male", "Race / Ethnicity": "Uncertain", "Date Modified": "8/10/2016", "State_FIPS": "4", "State_County": "4_Pima", "County_FIPS": "4019", "City_string": "ajo", "County_city": "4019_ajo", "GNIS_city": "Ajo"}, {"Case Number": "UP13867", "DBF": "12/13/2014", "Age From": "17.0", "Age To": "25.0", "City": "AJO", "County": "Pima", "State": "Arizona", "Sex": "Male", "Race / Ethnicity": "Hispanic / Latino", "Date Modified": "1/21/2020", "State_FIPS": "4", "State_County": "4_Pima", "County_FIPS": "4019", "City_string": "ajo", "County_city": "4019_ajo", "GNIS_city": "Ajo"}, {"Case Number": "UP14070", "DBF": "12/9/2014", "Age From": "18.0", "Age To": "58.0", "City": "Ajo", "County": "Pima", "State": "Arizona", "Sex": "Male", "Race / Ethnicity": "Uncertain", "Date Modified": "1/16/2020", "State_FIPS": "4", "State_County": "4_Pima", "County_FIPS": "4019", "City_string": "ajo", "County_city": "4019_ajo", "GNIS_city": "Ajo"}, {"Case Number": "UP13829", "DBF": "12/3/2014", "Age From": "28.0", "Age To": "40.0", "City": "Ajo", "County": "Pima", "State": "Arizona", "Sex": "Male", "Race / Ethnicity": "Hispanic / Latino", "Date Modified": "1/16/2020", "State_FIPS": "4", "State_County": "4_Pima", "County_FIPS": "4019", "City_string": "ajo", "County_city": "4019_ajo", "GNIS_city": "Ajo"}, {"Case Number": "UP13618", "DBF": "7/31/2014", "Age From": "25.0", "Age To": "50.0", "City": "AJO", "County": "Pima", "State": "Arizona", "Sex": "Male", "Race / Ethnicity": "Hispanic / Latino", "Date Modified": "1/16/2020", "State_FIPS": "4", "State_County": "4_Pima", "County_FIPS": "4019", "City_string": "ajo", "County_city": "4019_ajo", "GNIS_city": "Ajo"}, {"Case Number": "UP13813", "DBF": "7/16/2014", "Age From": "15.0", "Age To": "19.0", "City": "Ajo", "County": "Pima", "State": "Arizona", "Sex": "Male", "Race / Ethnicity": "Uncertain", "Date Modified": "1/16/2020", "State_FIPS": "4", "State_County": "4_Pima", "County_FIPS": "4019", "City_string": "ajo", "County_city": "4019_ajo", "GNIS_city": "Ajo"}, {"Case Number": "UP13020", "DBF": "6/10/2014", "Age From": "26.0", "Age To": "45.0", "City": "AJO", "County": "Pima", "State": "Arizona", "Sex": "Male", "Race / Ethnicity": "Hispanic / Latino", "Date Modified": "7/20/2018", "State_FIPS": "4", "State_County": "4_Pima", "County_FIPS": "4019", "City_string": "ajo", "County_city": "4019_ajo", "GNIS_city": "Ajo"}, {"Case Number": "UP13046", "DBF": "5/6/2014", "Age From": "35.0", "Age To": "55.0", "City": "Ajo", "County": "Pima", "State": "Arizona", "Sex": "Male", "Race / Ethnicity": "Hispanic / Latino", "Date Modified": "1/28/2020", "State_FIPS": "4", "State_County": "4_Pima", "County_FIPS": "4019", "City_string": "ajo", "County_city": "4019_ajo", "GNIS_city": "Ajo"}, {"Case Number": "UP12943", "DBF": "4/30/2014", "Age From": "30.0", "Age To": "55.0", "City": "Ajo", "County": "Pima", "State": "Arizona", "Sex": "Male", "Race / Ethnicity": "Hispanic / Latino", "Date Modified": "7/26/2018", "State_FIPS": "4", "State_County": "4_Pima", "County_FIPS": "4019", "City_string": "ajo", "County_city": "4019_ajo", "GNIS_city": "Ajo"}, {"Case Number": "UP12990", "DBF": "4/23/2014", "Age From": "23.0", "Age To": "45.0", "City": "Ajo", "County": "Pima", "State": "Arizona", "Sex": "Male", "Race / Ethnicity": "Hispanic / Latino", "Date Modified": "1/16/2020", "State_FIPS": "4", "State_County": "4_Pima", "County_FIPS": "4019", "City_string": "ajo", "County_city": "4019_ajo", "GNIS_city": "Ajo"}, {"Case Number": "UP12729", "DBF": "2/25/2014", "Age From": "18.0", "Age To": "44.0", "City": "Ajo", "County": "Pima", "State": "Arizona", "Sex": "Male", "Race / Ethnicity": "Hispanic / Latino", "Date Modified": "1/16/2020", "State_FIPS": "4", "State_County": "4_Pima", "County_FIPS": "4019", "City_string": "ajo", "County_city": "4019_ajo", "GNIS_city": "Ajo"}, {"Case Number": "UP12320", "DBF": "1/22/2014", "Age From": "20.0", "Age To": "35.0", "City": "Ajo", "County": "Pima", "State": "Arizona", "Sex": "Male", "Race / Ethnicity": "Uncertain", "Date Modified": "6/22/2015", "State_FIPS": "4", "State_County": "4_Pima", "County_FIPS": "4019", "City_string": "ajo", "County_city": "4019_ajo", "GNIS_city": "Ajo"}, {"Case Number": "UP12090", "DBF": "9/29/2013", "Age From": "25.0", "Age To": "38.0", "City": "Ajo", "County": "Pima", "State": "Arizona", "Sex": "Male", "Race / Ethnicity": "Other", "Date Modified": "11/13/2014", "State_FIPS": "4", "State_County": "4_Pima", "County_FIPS": "4019", "City_string": "ajo", "County_city": "4019_ajo", "GNIS_city": "Ajo"}, {"Case Number": "UP12308", "DBF": "7/13/2013", "Age From": "25.0", "Age To": "35.0", "City": "Ajo", "County": "Pima", "State": "Arizona", "Sex": "Male", "Race / Ethnicity": "Uncertain", "Date Modified": "11/12/2018", "State_FIPS": "4", "State_County": "4_Pima", "County_FIPS": "4019", "City_string": "ajo", "County_city": "4019_ajo", "GNIS_city": "Ajo"}, {"Case Number": "UP11959", "DBF": "5/19/2013", "Age From": "16.0", "Age To": "21.0", "City": "Ajo", "County": "Pima", "State": "Arizona", "Sex": "Male", "Race / Ethnicity": "Uncertain", "Date Modified": "3/9/2020", "State_FIPS": "4", "State_County": "4_Pima", "County_FIPS": "4019", "City_string": "ajo", "County_city": "4019_ajo", "GNIS_city": "Ajo"}, {"Case Number": "UP11958", "DBF": "5/10/2013", "Age From": "18.0", "Age To": "29.0", "City": "Ajo", "County": "Pima", "State": "Arizona", "Sex": "Male", "Race / Ethnicity": "Uncertain", "Date Modified": "7/16/2014", "State_FIPS": "4", "State_County": "4_Pima", "County_FIPS": "4019", "City_string": "ajo", "County_city": "4019_ajo", "GNIS_city": "Ajo"}, {"Case Number": "UP10291", "DBF": "1/15/2012", "Age From": "20.0", "Age To": "50.0", "City": "Ajo", "County": "Pima", "State": "Arizona", "Sex": "Male", "Race / Ethnicity": "Hispanic / Latino", "Date Modified": "1/11/2018", "State_FIPS": "4", "State_County": "4_Pima", "County_FIPS": "4019", "City_string": "ajo", "County_city": "4019_ajo", "GNIS_city": "Ajo"}, {"Case Number": "UP10098", "DBF": "11/18/2011", "Age From": "15.0", "Age To": "25.0", "City": "Ajo", "County": "Pima", "State": "Arizona", "Sex": "Male", "Race / Ethnicity": "Hispanic / Latino", "Date Modified": "1/29/2020", "State_FIPS": "4", "State_County": "4_Pima", "County_FIPS": "4019", "City_string": "ajo", "County_city": "4019_ajo", "GNIS_city": "Ajo"}, {"Case Number": "UP10053", "DBF": "10/24/2011", "Age From": "20.0", "Age To": "65.0", "City": "Ajo", "County": "Pima", "State": "Arizona", "Sex": "Male", "Race / Ethnicity": "Uncertain", "Date Modified": "1/16/2020", "State_FIPS": "4", "State_County": "4_Pima", "County_FIPS": "4019", "City_string": "ajo", "County_city": "4019_ajo", "GNIS_city": "Ajo"}, {"Case Number": "UP9275", "DBF": "8/24/2011", "Age From": "30.0", "Age To": "56.0", "City": "Ajo", "County": "Pima", "State": "Arizona", "Sex": "Male", "Race / Ethnicity": "Hispanic / Latino", "Date Modified": "4/2/2020", "State_FIPS": "4", "State_County": "4_Pima", "County_FIPS": "4019", "City_string": "ajo", "County_city": "4019_ajo", "GNIS_city": "Ajo"}, {"Case Number": "UP8835", "DBF": "5/7/2011", "Age From": "33.0", "Age To": "53.0", "City": "Ajo", "County": "Pima", "State": "Arizona", "Sex": "Male", "Race / Ethnicity": "Hispanic / Latino", "Date Modified": "11/21/2017", "State_FIPS": "4", "State_County": "4_Pima", "County_FIPS": "4019", "City_string": "ajo", "County_city": "4019_ajo", "GNIS_city": "Ajo"}, {"Case Number": "UP8756", "DBF": "2/25/2011", "Age From": "25.0", "Age To": "40.0", "City": "Ajo", "County": "Pima", "State": "Arizona", "Sex": "Male", "Race / Ethnicity": "Hispanic / Latino", "Date Modified": "11/19/2019", "State_FIPS": "4", "State_County": "4_Pima", "County_FIPS": "4019", "City_string": "ajo", "County_city": "4019_ajo", "GNIS_city": "Ajo"}, {"Case Number": "UP8757", "DBF": "8/20/2010", "Age From": "20.0", "Age To": "30.0", "City": "Ajo", "County": "Pima", "State": "Arizona", "Sex": "Male", "Race / Ethnicity": "Hispanic / Latino", "Date Modified": "11/8/2018", "State_FIPS": "4", "State_County": "4_Pima", "County_FIPS": "4019", "City_string": "ajo", "County_city": "4019_ajo", "GNIS_city": "Ajo"}, {"Case Number": "UP9045", "DBF": "3/12/2010", "Age From": "22.0", "Age To": "35.0", "City": "Ajo", "County": "Pima", "State": "Arizona", "Sex": "Male", "Race / Ethnicity": "Hispanic / Latino", "Date Modified": "10/20/2017", "State_FIPS": "4", "State_County": "4_Pima", "County_FIPS": "4019", "City_string": "ajo", "County_city": "4019_ajo", "GNIS_city": "Ajo"}, {"Case Number": "UP9020", "DBF": "2/25/2010", "Age From": "30.0", "Age To": "45.0", "City": "Ajo", "County": "Pima", "State": "Arizona", "Sex": "Male", "Race / Ethnicity": "Uncertain", "Date Modified": "10/20/2017", "State_FIPS": "4", "State_County": "4_Pima", "County_FIPS": "4019", "City_string": "ajo", "County_city": "4019_ajo", "GNIS_city": "Ajo"}, {"Case Number": "UP6365", "DBF": "7/20/2009", "Age From": "26.0", "Age To": "34.0", "City": "Ajo", "County": "Pima", "State": "Arizona", "Sex": "Male", "Race / Ethnicity": "Hispanic / Latino", "Date Modified": "1/16/2020", "State_FIPS": "4", "State_County": "4_Pima", "County_FIPS": "4019", "City_string": "ajo", "County_city": "4019_ajo", "GNIS_city": "Ajo"}, {"Case Number": "UP6361", "DBF": "7/8/2009", "Age From": "30.0", "Age To": "50.0", "City": "Ajo", "County": "Pima", "State": "Arizona", "Sex": "Male", "Race / Ethnicity": "Hispanic / Latino", "Date Modified": "1/16/2020", "State_FIPS": "4", "State_County": "4_Pima", "County_FIPS": "4019", "City_string": "ajo", "County_city": "4019_ajo", "GNIS_city": "Ajo"}, {"Case Number": "UP5074", "DBF": "9/10/2008", "Age From": "18.0", "Age To": "60.0", "City": "Ajo", "County": "Pima", "State": "Arizona", "Sex": "Male", "Race / Ethnicity": "Hispanic / Latino", "Date Modified": "4/9/2020", "State_FIPS": "4", "State_County": "4_Pima", "County_FIPS": "4019", "City_string": "ajo", "County_city": "4019_ajo", "GNIS_city": "Ajo"}, {"Case Number": "UP5075", "DBF": "9/10/2008", "Age From": "18.0", "Age To": "60.0", "City": "Ajo", "County": "Pima", "State": "Arizona", "Sex": "Male", "Race / Ethnicity": "Hispanic / Latino", "Date Modified": "4/9/2020", "State_FIPS": "4", "State_County": "4_Pima", "County_FIPS": "4019", "City_string": "ajo", "County_city": "4019_ajo", "GNIS_city": "Ajo"}, {"Case Number": "UP5143", "DBF": "6/6/2008", "Age From": "18.0", "Age To": "55.0", "City": "Ajo", "County": "Pima", "State": "Arizona", "Sex": "Male", "Race / Ethnicity": "Uncertain", "Date Modified": "3/25/2020", "State_FIPS": "4", "State_County": "4_Pima", "County_FIPS": "4019", "City_string": "ajo", "County_city": "4019_ajo", "GNIS_city": "Ajo"}, {"Case Number": "UP5084", "DBF": "4/23/2008", "Age From": "32.0", "Age To": "42.0", "City": "Ajo", "County": "Pima", "State": "Arizona", "Sex": "Male", "Race / Ethnicity": "Hispanic / Latino", "Date Modified": "9/30/2019", "State_FIPS": "4", "State_County": "4_Pima", "County_FIPS": "4019", "City_string": "ajo", "County_city": "4019_ajo", "GNIS_city": "Ajo"}, {"Case Number": "UP4949", "DBF": "7/18/2007", "Age From": "35.0", "Age To": "55.0", "City": "Ajo", "County": "Pima", "State": "Arizona", "Sex": "Male", "Race / Ethnicity": "Hispanic / Latino", "Date Modified": "2/25/2020", "State_FIPS": "4", "State_County": "4_Pima", "County_FIPS": "4019", "City_string": "ajo", "County_city": "4019_ajo", "GNIS_city": "Ajo"}, {"Case Number": "UP5354", "DBF": "5/23/2007", "Age From": "18.0", "Age To": "30.0", "City": "Ajo", "County": "Pima", "State": "Arizona", "Sex": "Male", "Race / Ethnicity": "Hispanic / Latino", "Date Modified": "4/9/2020", "State_FIPS": "4", "State_County": "4_Pima", "County_FIPS": "4019", "City_string": "ajo", "County_city": "4019_ajo", "GNIS_city": "Ajo"}, {"Case Number": "UP6748", "DBF": "5/21/2007", "Age From": "18.0", "Age To": "30.0", "City": "Ajo", "County": "Pima", "State": "Arizona", "Sex": "Male", "Race / Ethnicity": "Hispanic / Latino", "Date Modified": "1/16/2020", "State_FIPS": "4", "State_County": "4_Pima", "County_FIPS": "4019", "City_string": "ajo", "County_city": "4019_ajo", "GNIS_city": "Ajo"}, {"Case Number": "UP5362", "DBF": "3/10/2007", "Age From": "35.0", "Age To": "55.0", "City": "Ajo", "County": "Pima", "State": "Arizona", "Sex": "Male", "Race / Ethnicity": "Hispanic / Latino", "Date Modified": "4/2/2020", "State_FIPS": "4", "State_County": "4_Pima", "County_FIPS": "4019", "City_string": "ajo", "County_city": "4019_ajo", "GNIS_city": "Ajo"}, {"Case Number": "UP5365", "DBF": "1/4/2007", "Age From": "23.0", "Age To": "33.0", "City": "Ajo", "County": "Pima", "State": "Arizona", "Sex": "Male", "Race / Ethnicity": "Hispanic / Latino", "Date Modified": "11/6/2017", "State_FIPS": "4", "State_County": "4_Pima", "County_FIPS": "4019", "City_string": "ajo", "County_city": "4019_ajo", "GNIS_city": "Ajo"}, {"Case Number": "UP5381", "DBF": "10/15/2006", "Age From": "18.0", "Age To": "65.0", "City": "Ajo", "County": "Pima", "State": "Arizona", "Sex": "Male", "Race / Ethnicity": "Uncertain", "Date Modified": "11/6/2017", "State_FIPS": "4", "State_County": "4_Pima", "County_FIPS": "4019", "City_string": "ajo", "County_city": "4019_ajo", "GNIS_city": "Ajo"}, {"Case Number": "UP5394", "DBF": "7/30/2006", "Age From": "26.0", "Age To": "44.0", "City": "Ajo", "County": "Pima", "State": "Arizona", "Sex": "Male", "Race / Ethnicity": "Hispanic / Latino", "Date Modified": "4/9/2020", "State_FIPS": "4", "State_County": "4_Pima", "County_FIPS": "4019", "City_string": "ajo", "County_city": "4019_ajo", "GNIS_city": "Ajo"}, {"Case Number": "UP5444", "DBF": "9/9/2005", "Age From": "18.0", "Age To": "65.0", "City": "AJO", "County": "Pima", "State": "Arizona", "Sex": "Male", "Race / Ethnicity": "Hispanic / Latino", "Date Modified": "4/9/2020", "State_FIPS": "4", "State_County": "4_Pima", "County_FIPS": "4019", "City_string": "ajo", "County_city": "4019_ajo", "GNIS_city": "Ajo"}, {"Case Number": "UP5488", "DBF": "11/14/2004", "Age From": "26.0", "Age To": "44.0", "City": "AJO", "County": "Pima", "State": "Arizona", "Sex": "Male", "Race / Ethnicity": "Hispanic / Latino", "Date Modified": "4/6/2020", "State_FIPS": "4", "State_County": "4_Pima", "County_FIPS": "4019", "City_string": "ajo", "County_city": "4019_ajo", "GNIS_city": "Ajo"}, {"Case Number": "UP5489", "DBF": "11/12/2004", "Age From": "35.0", "Age To": "55.0", "City": "Ajo", "County": "Pima", "State": "Arizona", "Sex": "Male", "Race / Ethnicity": "Hispanic / Latino", "Date Modified": "4/6/2020", "State_FIPS": "4", "State_County": "4_Pima", "County_FIPS": "4019", "City_string": "ajo", "County_city": "4019_ajo", "GNIS_city": "Ajo"}, {"Case Number": "UP6454", "DBF": "12/24/2003", "Age From": "15.0", "Age To": "17.0", "City": "Ajo", "County": "Pima", "State": "Arizona", "Sex": "Male", "Race / Ethnicity": "Hispanic / Latino", "Date Modified": "1/16/2020", "State_FIPS": "4", "State_County": "4_Pima", "County_FIPS": "4019", "City_string": "ajo", "County_city": "4019_ajo", "GNIS_city": "Ajo"}, {"Case Number": "UP6447", "DBF": "12/7/2003", "Age From": "17.0", "Age To": "19.0", "City": "Ajo", "County": "Pima", "State": "Arizona", "Sex": "Male", "Race / Ethnicity": "Hispanic / Latino", "Date Modified": "1/16/2020", "State_FIPS": "4", "State_County": "4_Pima", "County_FIPS": "4019", "City_string": "ajo", "County_city": "4019_ajo", "GNIS_city": "Ajo"}, {"Case Number": "UP6456", "DBF": "7/27/2003", "Age From": "26.0", "Age To": "44.0", "City": "Ajo", "County": "Pima", "State": "Arizona", "Sex": "Male", "Race / Ethnicity": "Hispanic / Latino", "Date Modified": "1/16/2020", "State_FIPS": "4", "State_County": "4_Pima", "County_FIPS": "4019", "City_string": "ajo", "County_city": "4019_ajo", "GNIS_city": "Ajo"}, {"Case Number": "UP5521", "DBF": "11/21/2002", "Age From": "18.0", "Age To": "40.0", "City": "Ajo", "County": "Pima", "State": "Arizona", "Sex": "Male", "Race / Ethnicity": "Hispanic / Latino, Uncertain", "Date Modified": "1/16/2020", "State_FIPS": "4", "State_County": "4_Pima", "County_FIPS": "4019", "City_string": "ajo", "County_city": "4019_ajo", "GNIS_city": "Ajo"}, {"Case Number": "UP7174", "DBF": "4/10/2001", "Age From": "9.0", "Age To": "16.0", "City": "Ajo", "County": "Pima", "State": "Arizona", "Sex": "Male", "Race / Ethnicity": "Hispanic / Latino", "Date Modified": "1/16/2020", "State_FIPS": "4", "State_County": "4_Pima", "County_FIPS": "4019", "City_string": "ajo", "County_city": "4019_ajo", "GNIS_city": "Ajo"}, {"Case Number": "UP8933", "DBF": "5/23/2000", "Age From": "19.0", "Age To": "30.0", "City": "Ajo", "County": "Pima", "State": "Arizona", "Sex": "Male", "Race / Ethnicity": "Hispanic / Latino", "Date Modified": "1/16/2020", "State_FIPS": "4", "State_County": "4_Pima", "County_FIPS": "4019", "City_string": "ajo", "County_city": "4019_ajo", "GNIS_city": "Ajo"}, {"Case Number": "UP11029", "DBF": "3/16/1990", "Age From": "20.0", "Age To": "40.0", "City": "AJo", "County": "Pima", "State": "Arizona", "Sex": "Male", "Race / Ethnicity": "Hispanic / Latino", "Date Modified": "3/9/2020", "State_FIPS": "4", "State_County": "4_Pima", "County_FIPS": "4019", "City_string": "ajo", "County_city": "4019_ajo", "GNIS_city": "Ajo"}, {"Case Number": "UP64189", "DBF": "12/10/2019", "Age From": "0.0", "Age To": "120.0", "City": "Ajo", "County": "Pima", "State": "Arizona", "Sex": "Unsure", "Race / Ethnicity": "Hispanic / Latino", "Date Modified": "1/15/2020", "State_FIPS": "4", "State_County": "4_Pima", "County_FIPS": "4019", "City_string": "ajo", "County_city": "4019_ajo", "GNIS_city": "Ajo"}, {"Case Number": "UP8965", "DBF": "7/20/2011", "Age From": "18.0", "Age To": "99.0", "City": "Ajo", "County": "Pima", "State": "Arizona", "Sex": "Unsure", "Race / Ethnicity": "Uncertain", "Date Modified": "1/24/2020", "State_FIPS": "4", "State_County": "4_Pima", "County_FIPS": "4019", "City_string": "ajo", "County_city": "4019_ajo", "GNIS_city": "Ajo"}, {"Case Number": "UP5351", "DBF": "6/15/2007", "Age From": "17.0", "Age To": "20.0", "City": "Ajo", "County": "Pima", "State": "Arizona", "Sex": "Female", "Race / Ethnicity": "Hispanic / Latino", "Date Modified": "11/6/2017", "State_FIPS": "4", "State_County": "4_Pima", "County_FIPS": "4019", "City_string": "ajo", "County_city": "4019_ajo", "GNIS_city": "Ajo"}, {"Case Number": "UP6446", "DBF": "11/19/2003", "Age From": "18.0", "Age To": "23.0", "City": "Ajo", "County": "Pima", "State": "Arizona", "Sex": "Female", "Race / Ethnicity": "Hispanic / Latino", "Date Modified": "1/16/2020", "State_FIPS": "4", "State_County": "4_Pima", "County_FIPS": "4019", "City_string": "ajo", "County_city": "4019_ajo", "GNIS_city": "Ajo"}], "filtered": []}, "geometry": {"type": "Point", "coordinates": [-112.8607099, 32.371724900000004]}}, {"type": "Feature", "name": "Ak Chin", "city_code": "4021_akchin", "county_name": "Pinal", "county_FIPS": "4021", "state_name": "Arizona", "state_abbr": "AZ", "state_FIPS": "4", "properties": {"missing": [], "unclaimed": [], "unidentified": [], "filtered": []}, "geometry": {"type": "Point", "coordinates": [-112.0731983, 33.0328285]}}, {"type": "Feature", "name": "Alhambra", "city_code": "4013_alhambra", "county_name": "Maricopa", "county_FIPS": "4013", "state_name": "Arizona", "state_abbr": "AZ", "state_FIPS": "4", "properties": {"missing": [], "unclaimed": [], "unidentified": [], "filtered": []}, "geometry": {"type": "Point", "coordinates": [-112.1343177, 33.4983756]}}, {"type": "Feature", "name": "Ali Chuk", "city_code": "4019_alichuk", "county_name": "Pima", "county_FIPS": "4019", "state_name": "Arizona", "state_abbr": "AZ", "state_FIPS": "4", "properties": {"missing": [], "unclaimed": [], "unidentified": [], "filtered": []}, "geometry": {"type": "Point", "coordinates": [-112.5568109, 31.8150745]}}, {"type": "Feature", "name": "Allenville", "city_code": "4013_allenville", "county_name": "Maricopa", "county_FIPS": "4013", "state_name": "Arizona", "state_abbr": "AZ", "state_FIPS": "4", "properties": {"missing": [], "unclaimed": [], "unidentified": [], "filtered": []}, "geometry": {"type": "Point", "coordinates": [-112.58655420000002, 33.351986600000004]}}, {"type": "Feature", "name": "Anegam", "city_code": "4019_anegam", "county_name": "Pima", "county_FIPS": "4019", "state_name": "Arizona", "state_abbr": "AZ", "state_FIPS": "4", "properties": {"missing": [], "unclaimed": [], "unidentified": [{"Case Number": "UP5078", "DBF": "3/8/2008", "Age From": "25.0", "Age To": "35.0", "City": "ANEGAM", "County": "Pima", "State": "Arizona", "Sex": "Male", "Race / Ethnicity": "Hispanic / Latino", "Date Modified": "4/9/2020", "State_FIPS": "4", "State_County": "4_Pima", "County_FIPS": "4019", "City_string": "anegam", "County_city": "4019_anegam", "GNIS_city": "Anegam"}], "filtered": []}, "geometry": {"type": "Point", "coordinates": [-112.0309692, 32.3728432]}}, {"type": "Feature", "name": "Apache Flats", "city_code": "4003_apacheflats", "county_name": "Cochise", "county_FIPS": "4003", "state_name": "Arizona", "state_abbr": "AZ", "state_FIPS": "4", "properties": {"missing": [], "unclaimed": [], "unidentified": [], "filtered": []}, "geometry": {"type": "Point", "coordinates": [-110.3625803, 31.5581502]}}, {"type": "Feature", "name": "Arizola", "city_code": "4021_arizola", "county_name": "Pinal", "county_FIPS": "4021", "state_name": "Arizona", "state_abbr": "AZ", "state_FIPS": "4", "properties": {"missing": [], "unclaimed": [], "unidentified": [], "filtered": []}, "geometry": {"type": "Point", "coordinates": [-111.7142947, 32.8511698]}}, {"type": "Feature", "name": "Arizona City", "city_code": "4021_arizonacity", "county_name": "Pinal", "county_FIPS": "4021", "state_name": "Arizona", "state_abbr": "AZ", "state_FIPS": "4", "properties": {"missing": [], "unclaimed": [], "unidentified": [{"Case Number": "UP8725", "DBF": "2/18/2010", "Age From": "20.0", "Age To": "30.0", "City": "Arizona City", "County": "Pinal", "State": "Arizona", "Sex": "Male", "Race / Ethnicity": "Hispanic / Latino", "Date Modified": "1/29/2020", "State_FIPS": "4", "State_County": "4_Pinal", "County_FIPS": "4021", "City_string": "arizonacity", "County_city": "4021_arizonacity", "GNIS_city": "Arizona City"}, {"Case Number": "UP5086", "DBF": "12/3/2008", "Age From": "20.0", "Age To": "30.0", "City": "Arizona City", "County": "Pinal", "State": "Arizona", "Sex": "Male", "Race / Ethnicity": "Hispanic / Latino", "Date Modified": "1/29/2020", "State_FIPS": "4", "State_County": "4_Pinal", "County_FIPS": "4021", "City_string": "arizonacity", "County_city": "4021_arizonacity", "GNIS_city": "Arizona City"}, {"Case Number": "UP6757", "DBF": "1/10/2004", "Age From": "25.0", "Age To": "45.0", "City": "Arizona City", "County": "Pinal", "State": "Arizona", "Sex": "Male", "Race / Ethnicity": "Hispanic / Latino", "Date Modified": "1/29/2020", "State_FIPS": "4", "State_County": "4_Pinal", "County_FIPS": "4021", "City_string": "arizonacity", "County_city": "4021_arizonacity", "GNIS_city": "Arizona City"}, {"Case Number": "UP11105", "DBF": "10/6/1985", "Age From": "18.0", "Age To": "25.0", "City": "Arizona City", "County": "Pinal", "State": "Arizona", "Sex": "Male", "Race / Ethnicity": "Hispanic / Latino", "Date Modified": "1/29/2020", "State_FIPS": "4", "State_County": "4_Pinal", "County_FIPS": "4021", "City_string": "arizonacity", "County_city": "4021_arizonacity", "GNIS_city": "Arizona City"}, {"Case Number": "UP10505", "DBF": "1/28/2012", "Age From": "30.0", "Age To": "60.0", "City": "Arizona City", "County": "Pinal", "State": "Arizona", "Sex": "Female", "Race / Ethnicity": "Uncertain", "Date Modified": "1/29/2020", "State_FIPS": "4", "State_County": "4_Pinal", "County_FIPS": "4021", "City_string": "arizonacity", "County_city": "4021_arizonacity", "GNIS_city": "Arizona City"}], "filtered": []}, "geometry": {"type": "Point", "coordinates": [-111.6709584, 32.7558935]}}, {"type": "Feature", "name": "Arlington", "city_code": "4013_arlington", "county_name": "Maricopa", "county_FIPS": "4013", "state_name": "Arizona", "state_abbr": "AZ", "state_FIPS": "4", "properties": {"missing": [], "unclaimed": [], "unidentified": [], "filtered": []}, "geometry": {"type": "Point", "coordinates": [-112.7640604, 33.3255978]}}, {"type": "Feature", "name": "Audley", "city_code": "4025_audley", "county_name": "Yavapai", "county_FIPS": "4025", "state_name": "Arizona", "state_abbr": "AZ", "state_FIPS": "4", "properties": {"missing": [], "unclaimed": [], "unidentified": [], "filtered": []}, "geometry": {"type": "Point", "coordinates": [-113.039081, 35.40166660000001]}}, {"type": "Feature", "name": "Avondale", "city_code": "4013_avondale", "county_name": "Maricopa", "county_FIPS": "4013", "state_name": "Arizona", "state_abbr": "AZ", "state_FIPS": "4", "properties": {"missing": [{"Case Number": "MP6767", "DLC": "5/6/2001", "Last Name": "Vasquez", "First Name": "Jacqueline", "Missing Age": "0.5", "City": "Avondale", "County": "Maricopa", "State": "Arizona", "Sex": "Female", "Race / Ethnicity": "Hispanic / Latino", "Date Modified": "8/29/2019", "State_FIPS": "4", "State_County": "4_Maricopa", "County_FIPS": "4013", "City_string": "avondale", "County_city": "4013_avondale", "GNIS_city": "Avondale"}], "unclaimed": [{"Case Number": "UCP3089", "DBF": "nan", "Last Name": "De jesus gomez", "First Name": "Jose", "Sex": "Male", "Race / Ethnicity": "Uncertain", "City": "Avondale", "County": "Maricopa", "State": "Arizona", "Date Modified": "2/7/2017", "State_FIPS": "4", "State_County": "4_Maricopa", "County_FIPS": "4013", "City_string": "avondale", "County_city": "4013_avondale", "GNIS_city": "Avondale"}], "unidentified": [{"Case Number": "UP58988", "DBF": "7/5/2019", "Age From": "50.0", "Age To": "72.0", "City": "Avondale", "County": "Maricopa", "State": "Arizona", "Sex": "Male", "Race / Ethnicity": "White / Caucasian", "Date Modified": "12/27/2019", "State_FIPS": "4", "State_County": "4_Maricopa", "County_FIPS": "4013", "City_string": "avondale", "County_city": "4013_avondale", "GNIS_city": "Avondale"}, {"Case Number": "UP817", "DBF": "7/2/2007", "Age From": "28.0", "Age To": "50.0", "City": "Avondale", "County": "Maricopa", "State": "Arizona", "Sex": "Male", "Race / Ethnicity": "White / Caucasian, Hispanic / Latino", "Date Modified": "12/27/2019", "State_FIPS": "4", "State_County": "4_Maricopa", "County_FIPS": "4013", "City_string": "avondale", "County_city": "4013_avondale", "GNIS_city": "Avondale"}], "filtered": []}, "geometry": {"type": "Point", "coordinates": [-112.3496021, 33.4355977]}}, {"type": "Feature", "name": "Bacavi", "city_code": "4017_bacavi", "county_name": "Navajo", "county_FIPS": "4017", "state_name": "Arizona", "state_abbr": "AZ", "state_FIPS": "4", "properties": {"missing": [], "unclaimed": [], "unidentified": [], "filtered": []}, "geometry": {"type": "Point", "coordinates": [-110.65736, 35.92361360000001]}}, {"type": "Feature", "name": "Bagdad", "city_code": "4025_bagdad", "county_name": "Yavapai", "county_FIPS": "4025", "state_name": "Arizona", "state_abbr": "AZ", "state_FIPS": "4", "properties": {"missing": [{"Case Number": "MP29754", "DLC": "7/8/2015", "Last Name": "Culver", "First Name": "Keely", "Missing Age": "26", "City": "Bagdad", "County": "Yavapai", "State": "Arizona", "Sex": "Female", "Race / Ethnicity": "White / Caucasian", "Date Modified": "4/2/2020", "State_FIPS": "4", "State_County": "4_Yavapai", "County_FIPS": "4025", "City_string": "bagdad", "County_city": "4025_bagdad", "GNIS_city": "Bagdad"}], "unclaimed": [], "unidentified": [{"Case Number": "UP12837", "DBF": "11/2/1993", "Age From": "30.0", "Age To": "60.0", "City": "Bagdad", "County": "Yavapai", "State": "Arizona", "Sex": "Male", "Race / Ethnicity": "White / Caucasian", "Date Modified": "4/2/2020", "State_FIPS": "4", "State_County": "4_Yavapai", "County_FIPS": "4025", "City_string": "bagdad", "County_city": "4025_bagdad", "GNIS_city": "Bagdad"}, {"Case Number": "UP10742", "DBF": "9/8/1986", "Age From": "24.0", "Age To": "31.0", "City": "Bagdad", "County": "Yavapai", "State": "Arizona", "Sex": "Female", "Race / Ethnicity": "White / Caucasian", "Date Modified": "4/2/2020", "State_FIPS": "4", "State_County": "4_Yavapai", "County_FIPS": "4025", "City_string": "bagdad", "County_city": "4025_bagdad", "GNIS_city": "Bagdad"}], "filtered": []}, "geometry": {"type": "Point", "coordinates": [-113.2046414, 34.5811305]}}, {"type": "Feature", "name": "Bakerville", "city_code": "4003_bakerville", "county_name": "Cochise", "county_FIPS": "4003", "state_name": "Arizona", "state_abbr": "AZ", "state_FIPS": "4", "properties": {"missing": [], "unclaimed": [], "unidentified": [], "filtered": []}, "geometry": {"type": "Point", "coordinates": [-109.88729620000002, 31.4228777]}}, {"type": "Feature", "name": "Bapchule", "city_code": "4021_bapchule", "county_name": "Pinal", "county_FIPS": "4021", "state_name": "Arizona", "state_abbr": "AZ", "state_FIPS": "4", "properties": {"missing": [{"Case Number": "MP24339", "DLC": "4/11/2014", "Last Name": "Bread", "First Name": "Kermit", "Missing Age": "38", "City": "Bapchule", "County": "Pinal", "State": "Arizona", "Sex": "Male", "Race / Ethnicity": "American Indian / Alaska Native", "Date Modified": "12/27/2019", "State_FIPS": "4", "State_County": "4_Pinal", "County_FIPS": "4021", "City_string": "bapchule", "County_city": "4021_bapchule", "GNIS_city": "Bapchule"}], "unclaimed": [], "unidentified": [], "filtered": []}, "geometry": {"type": "Point", "coordinates": [-111.8731933, 33.1364413]}}, {"type": "Feature", "name": "Beardsley", "city_code": "4013_beardsley", "county_name": "Maricopa", "county_FIPS": "4013", "state_name": "Arizona", "state_abbr": "AZ", "state_FIPS": "4", "properties": {"missing": [], "unclaimed": [], "unidentified": [], "filtered": []}, "geometry": {"type": "Point", "coordinates": [-112.3790519, 33.6614262]}}, {"type": "Feature", "name": "Benson", "city_code": "4003_benson", "county_name": "Cochise", "county_FIPS": "4003", "state_name": "Arizona", "state_abbr": "AZ", "state_FIPS": "4", "properties": {"missing": [], "unclaimed": [], "unidentified": [{"Case Number": "UP17798", "DBF": "11/16/2017", "Age From": "35.0", "Age To": "70.0", "City": "Benson", "County": "Cochise", "State": "Arizona", "Sex": "Male", "Race / Ethnicity": "Uncertain", "Date Modified": "10/2/2019", "State_FIPS": "4", "State_County": "4_Cochise", "County_FIPS": "4003", "City_string": "benson", "County_city": "4003_benson", "GNIS_city": "Benson"}, {"Case Number": "UP9982", "DBF": "7/9/2010", "Age From": "15.0", "Age To": "35.0", "City": "Benson", "County": "Cochise", "State": "Arizona", "Sex": "Male", "Race / Ethnicity": "Uncertain", "Date Modified": "8/15/2018", "State_FIPS": "4", "State_County": "4_Cochise", "County_FIPS": "4003", "City_string": "benson", "County_city": "4003_benson", "GNIS_city": "Benson"}, {"Case Number": "UP6767", "DBF": "6/24/2005", "Age From": "24.0", "Age To": "46.0", "City": "Benson", "County": "Cochise", "State": "Arizona", "Sex": "Male", "Race / Ethnicity": "Hispanic / Latino", "Date Modified": "2/11/2020", "State_FIPS": "4", "State_County": "4_Cochise", "County_FIPS": "4003", "City_string": "benson", "County_city": "4003_benson", "GNIS_city": "Benson"}, {"Case Number": "UP8431", "DBF": "10/11/1996", "Age From": "24.0", "Age To": "45.0", "City": "Benson", "County": "Cochise", "State": "Arizona", "Sex": "Male", "Race / Ethnicity": "White / Caucasian", "Date Modified": "8/27/2019", "State_FIPS": "4", "State_County": "4_Cochise", "County_FIPS": "4003", "City_string": "benson", "County_city": "4003_benson", "GNIS_city": "Benson"}, {"Case Number": "UP7835", "DBF": "10/3/1986", "Age From": "60.0", "Age To": "85.0", "City": "Benson", "County": "Cochise", "State": "Arizona", "Sex": "Male", "Race / Ethnicity": "White / Caucasian", "Date Modified": "10/22/2019", "State_FIPS": "4", "State_County": "4_Cochise", "County_FIPS": "4003", "City_string": "benson", "County_city": "4003_benson", "GNIS_city": "Benson"}, {"Case Number": "UP10743", "DBF": "10/26/2012", "Age From": "16.0", "Age To": "30.0", "City": "Benson", "County": "Cochise", "State": "Arizona", "Sex": "Female", "Race / Ethnicity": "Uncertain", "Date Modified": "8/21/2019", "State_FIPS": "4", "State_County": "4_Cochise", "County_FIPS": "4003", "City_string": "benson", "County_city": "4003_benson", "GNIS_city": "Benson"}, {"Case Number": "UP5815", "DBF": "3/2/2008", "Age From": "25.0", "Age To": "35.0", "City": "Benson", "County": "Cochise", "State": "Arizona", "Sex": "Female", "Race / Ethnicity": "White / Caucasian", "Date Modified": "10/22/2019", "State_FIPS": "4", "State_County": "4_Cochise", "County_FIPS": "4003", "City_string": "benson", "County_city": "4003_benson", "GNIS_city": "Benson"}], "filtered": []}, "geometry": {"type": "Point", "coordinates": [-110.2945174, 31.967861100000004]}}, {"type": "Feature", "name": "Big Springs", "city_code": "4005_bigsprings", "county_name": "Coconino", "county_FIPS": "4005", "state_name": "Arizona", "state_abbr": "AZ", "state_FIPS": "4", "properties": {"missing": [], "unclaimed": [], "unidentified": [], "filtered": []}, "geometry": {"type": "Point", "coordinates": [-112.3499036, 36.6016535]}}, {"type": "Feature", "name": "Bisbee", "city_code": "4003_bisbee", "county_name": "Cochise", "county_FIPS": "4003", "state_name": "Arizona", "state_abbr": "AZ", "state_FIPS": "4", "properties": {"missing": [{"Case Number": "MP1468", "DLC": "2/8/2007", "Last Name": "Kirchoff", "First Name": "Julian", "Missing Age": "22", "City": "Bisbee", "County": "Cochise", "State": "Arizona", "Sex": "Male", "Race / Ethnicity": "White / Caucasian, Hispanic / Latino", "Date Modified": "8/12/2019", "State_FIPS": "4", "State_County": "4_Cochise", "County_FIPS": "4003", "City_string": "bisbee", "County_city": "4003_bisbee", "GNIS_city": "Bisbee"}, {"Case Number": "MP1055", "DLC": "7/24/1996", "Last Name": "Kalaf", "First Name": "Abraham", "Missing Age": "79", "City": "Bisbee", "County": "Cochise", "State": "Arizona", "Sex": "Male", "Race / Ethnicity": "White / Caucasian", "Date Modified": "1/16/2020", "State_FIPS": "4", "State_County": "4_Cochise", "County_FIPS": "4003", "City_string": "bisbee", "County_city": "4003_bisbee", "GNIS_city": "Bisbee"}, {"Case Number": "MP6640", "DLC": "4/5/2006", "Last Name": "Scott", "First Name": "Alicia", "Missing Age": "15", "City": "Bisbee", "County": "Cochise", "State": "Arizona", "Sex": "Female", "Race / Ethnicity": "White / Caucasian", "Date Modified": "3/18/2020", "State_FIPS": "4", "State_County": "4_Cochise", "County_FIPS": "4003", "City_string": "bisbee", "County_city": "4003_bisbee", "GNIS_city": "Bisbee"}], "unclaimed": [], "unidentified": [{"Case Number": "UP8953", "DBF": "7/1/2003", "Age From": "45.0", "Age To": "55.0", "City": "Bisbee", "County": "Cochise", "State": "Arizona", "Sex": "Male", "Race / Ethnicity": "Hispanic / Latino", "Date Modified": "8/26/2019", "State_FIPS": "4", "State_County": "4_Cochise", "County_FIPS": "4003", "City_string": "bisbee", "County_city": "4003_bisbee", "GNIS_city": "Bisbee"}, {"Case Number": "UP8949", "DBF": "3/3/2003", "Age From": "20.0", "Age To": "40.0", "City": "Bisbee", "County": "Cochise", "State": "Arizona", "Sex": "Male", "Race / Ethnicity": "White / Caucasian", "Date Modified": "8/26/2019", "State_FIPS": "4", "State_County": "4_Cochise", "County_FIPS": "4003", "City_string": "bisbee", "County_city": "4003_bisbee", "GNIS_city": "Bisbee"}], "filtered": []}, "geometry": {"type": "Point", "coordinates": [-109.92840840000002, 31.448154700000003]}}, {"type": "Feature", "name": "Bisbee Junction", "city_code": "4003_bisbeejunction", "county_name": "Cochise", "county_FIPS": "4003", "state_name": "Arizona", "state_abbr": "AZ", "state_FIPS": "4", "properties": {"missing": [], "unclaimed": [], "unidentified": [], "filtered": []}, "geometry": {"type": "Point", "coordinates": [-109.8861844, 31.3514908]}}]}